STA_SEQ,Station_Na,YLat,XLong,MinOfNomin,CountOfNom,HydroID
16334,Nonewaug River,41.6255,-73.1593,3,1,103004431
16505,BIBLE ROCK BROOK,41.4975,-72.6064,2,1,106001676
16603,DAY MEADOW BROOK,41.5803,-72.4083,5,1,106002429
15169,Roaring Brook,41.7594,-72.8808,4,2,105001230
17299,Cuff Brook,41.5409,-72.9485,4,2,104000191
16972,PITCH BROOK,41.7067,-73.1619,2,1,103009643
15752,Eagleville Brook,41.8089,-72.2633,5,1,107001744
16331,Sumner Brook,41.4835,-72.6375,2,1,106001514
14840,Mountain Brook,41.9741,-72.8375,2,2,105000748
15301,Eagleville Brook,41.8067,-72.2646,5,3,107001725
15386,Roberts Brook (Mirror Lake outlet),41.815,-72.2319,3,1,107001750
16120,Elbow Brook,41.5211,-72.4869,2,1,106002069
15302,Eagleville Brook,41.804,-72.266,4,3,107001684
16588,COOPER POND BROOK,41.2742,-73.4642,5,1,102002568
19121,Bullet Hill Brook,41.48494,-73.19425,3,1,103014759
19682,Sixmile Brook,41.406776,-73.144739,3,1,103016538
17300,Cabin Brook,41.5605,-72.3167,3,2,106002321
16119,Day Pond Brook,41.5623,-72.4338,2,5,106002231
19696,Whiting River Unnamed tributary to,42.03433,-73.268021,3,1,103003315
16204,Steele Brook,41.6175,-73.131,3,1,103011912
17816,INDIAN HUT BROOK,41.90276,-72.06398,3,1,107002745
15001,Beach Brook,41.946,-72.8575,2,1,105001894
15406,Little Brook,41.6424,-72.7207,4,2,106002759
15315,Burnham Brook,41.4603,-72.3343,2,6,106001367
17852,Shady Oak School House Brook,41.89866,-71.80928,3,1,109002552
16316,Jim Brook,41.8377,-72.8817,3,2,105001412
15303,Eagleville Brook,41.7991,-72.2738,3,1,107001644
16123,Muddy Brook,41.4756,-72.342,3,1,106001530
16387,Hurricane Brook,42.033,-72.9207,2,3,105000877
19021,Farm Brook,41.82225,-72.543615,5,1,106003364
16002,Pemberwick Brook,41.0274,-73.661,5,2,102000177
16341,Nod Brook,41.8286,-72.8667,3,1,105001382
16326,Wharton Brook tributary to,41.4309,-72.8196,5,1,104000478
16984,PURCHASE BROOK,41.4686,-73.2911,3,1,103015113
17427,East Branch Stonehouse Brook,41.8186,-72.1316,5,1,107001810
17610,Silver Brook,41.280798,-72.999271,5,1,104002083
19025,Menunketesuck River,41.382789,-72.552639,4,1,104000796
16127,Jakes Brook,41.864151,-73.167442,2,4,103005443
15239,East Branch Byram River,41.0995,-73.6832,3,2,102000513
16135,Sargent River,41.4272,-72.9899,3,1,104000529
15304,Eagleville Brook,41.7938,-72.2752,3,4,107001600
15010,Cabin Brook,41.5603,-72.3349,3,3,106002320
18209,Cabin Brook,41.56052,-72.330771,3,2,106002320
18515,Menunketesuck River Unnamed Tributary to,41.356489,-72.536493,5,1,104001139
19655,Bradley Brook,41.991852,-72.810504,4,1,105002144
14846,Sawmill Brook,41.5851,-73.5108,2,1,103012506
16535,BUCK BROOK,41.6228,-72.558,3,1,106002686
15426,Bladens River (Bladdens River),41.3872,-73.0191,3,1,103016885
16035,Nickelmine Brook,41.8342,-73.1786,3,1,103006136
14862,Bentley Brook,41.5582,-72.1366,3,1,108000499
14860,Flat Brook,41.4062,-72.0747,3,1,108001640
14263,Kahn Brook,41.5681,-72.1702,4,3,108000399
16116,Kettle Brook,41.9324,-72.9442,2,1,105001830
16111,Beaver Meadow Brook,41.4552,-72.5288,3,1,106001310
16015,Murphy Brook,41.7828,-72.0398,2,1,107001450
15011,Crooked Brook,41.5999,-71.9067,3,1,109003940
15017,Fivemile Brook,41.3846,-73.1597,3,1,103016986
19020,Moosehorn Brook,41.570871,-73.327091,3,1,103012935
16322,Ogden Brook,41.8456,-72.4816,4,2,106003539
14999,North Running Brook,41.9645,-71.9657,3,1,109002217
17708,Silver Brook,41.2722,-73.0008,5,1,104002139
14845,Bull Mountain Brook,41.6782,-73.4515,3,1,103010288
16336,Hatchery Brook,41.622,-72.7697,4,2,106002542
17061,SPRING LOT BROOK,41.3019,-72.4569,4,2,104001611
14453,Spruce Brook,41.4562,-73.0626,3,1,103015370
16136,Wintergreen Brook,41.3458,-72.9585,4,1,104001217
16345,Sasco Brook tributary to,41.1817,-73.3142,3,1,102001474
16080,West Branch Salmon Brook,41.9745,-72.896,2,1,105000769
16078,South Mountain Brook,41.6621,-72.947,3,1,105001033
16679,Fry Brook,41.6831,-71.9058,3,2,109003611
15990,Spice Brook,41.8459,-72.3865,3,2,107002132
15244,Cobble Brook,41.7217,-73.4572,3,1,103009189
19017,Todd Hollow Brook,41.654345,-73.036215,5,1,103011005
14858,Flat Brook,41.6801,-72.4673,2,1,106002914
16114,Rugg Brook,41.9328,-73.1214,2,3,105001823
16122,Early Brook,41.4978,-72.3435,2,2,106001719
14128,Bantam River,41.6884,-73.2668,3,2,103010096
15783,Eagleville Brook,41.7882,-72.2776,3,3,107001502
16064,Umpawaug Pond Brook,41.3169,-73.4443,4,1,102002798
14866,Stickney Hill Brook,41.9833,-72.2179,2,4,107003475
16137,Indian River,41.2651,-73.0129,5,1,104002255
17448,Pequonnock River,41.3204,-73.2405,4,1,102002825
17398,Negro Hill Brook,41.7254,-72.95,2,1,105000061
15999,Silver Brook,41.2665,-73.0049,4,2,104002273
16594,Cranberry Meadow Brook,41.405177,-72.225708,4,1,108001678
15520,Bonemill Brook,41.925,-72.3162,2,2,107002960
16121,Flat Brook,41.5544,-72.4523,2,2,106002283
15714,Cedar Swamp Brook,41.8164,-72.279,3,1,107001775
15580,Town Farm Brook,41.5648,-73.3936,4,1,103013254
15997,Town Farm Brook,41.5562,-73.3912,4,2,103013254
14998,Still Brook,42.0192,-72.3127,4,1,107003689
16501,BELDEN BROOK,42.0122,-72.8775,3,1,105000840
16124,Flat Brook,41.938249,-73.321123,2,6,103004217
19698,Cove River,41.286443,-72.9741,5,1,104001905
15024,Wood Creek,41.6387,-73.2362,2,1,103011547
15066,Patton Brook,41.6462,-72.8601,5,1,104000050
16299,Hunts brook,41.4293,-72.172,2,1,108001436
16025,Muddy Brook,41.1276,-73.3294,5,1,102000737
16528,BRANCH BROOK,41.395779,-72.72126,3,1,104000640
16110,Mott Hill Brook,41.6615,-72.5365,3,5,106002799
18496,Mill River,41.30213,-73.27415,3,1,102002730
16112,Hemlock Valley Brook,41.4283,-72.4226,2,4,106001029
14804,Mill Brook,41.8804,-73.331,3,3,103005089
15193,Honeypot Brook,41.5396,-72.8789,5,1,104000258
16734,Hempstead Brook,41.3722,-72.0456,4,2,108001990
19693,Pequabuck River,41.68184,-73.0163,5,1,105001061
16373,East Mountain Brook,41.8772,-72.9778,2,1,105001580
14385,Pequabuck River,41.6789,-73.015,5,3,105001061
15768,Mallory Brook,41.9113,-73.0263,3,1,105000523
16962,PHELPS BROOK,41.799811,-72.964813,4,1,105001323
15201,Spoonshop Brook,41.545673,-72.765549,5,1,104000181
16325,Willow Brook,41.5425,-72.7707,5,2,104000259
14736,Sherman Brook,41.5753,-72.2847,3,1,108000341
17568,Sherman Brook,41.576275,-72.287584,3,2,108000341
14852,Pumpkin Ground Brook,41.2415,-73.1341,5,1,103018853
17186,WEWAKA BROOK,41.4878,-73.3508,3,1,103014674
17565,Long Branch Brook,42.01196,-71.871901,4,1,109001897
18468,Joe Clark Brook,41.484687,-72.0413,3,1,108001010
16416,Delphi Brook,42.0211,-72.2517,2,1,107003685
15051,Durkee Brook,41.8829,-71.9286,4,1,109002632
14880,Sages Ravine Brook,42.0495,-73.4301,3,1,103003192
16337,Beaver Brook,41.3351,-73.0766,5,1,103018063
14723,Fenger Brook,41.3219,-72.1054,5,1,108002405
16333,Bullet Hill Brook,41.4826,-73.2205,3,1,103014760
14523,Burton Brook,41.9667,-73.4341,3,1,103003881
15964,Thompson Brook,41.7681,-72.8497,4,3,105001258
15018,Farm River,41.4063,-72.771,4,2,104000560
15007,Sawmill Brook,41.7398,-72.2017,2,1,107001013
14362,Ridgefield Brook,41.3158,-73.4792,4,3,102002815
14968,Lily Brook,41.5742,-72.9878,4,1,103012823
16191,Hall Meadow Brook,41.9173,-73.1949,2,1,103004719
16428,Little River,41.309,-73.3658,5,1,102002783
16289,Staddle Brook,41.727,-72.3782,3,1,107000929
16502,BELDEN BROOK,42.0056,-72.8508,2,1,105000830
16140,Bruce Brook,41.1899,-73.1551,5,2,102001391
14551,Coginchaug River,41.4435,-72.6882,3,2,106001172
15413,Belcher Brook,41.605,-72.7577,4,3,106002513
18875,Walker Brook,41.598459,-73.347537,3,1,103012123
15796,PENDLETON HILL BROOK,41.4748,-71.8342,2,5,110001178
14844,Lake Waramaug Brook,41.7243,-73.3345,3,1,103009207
15003,Wappoquia Brook,41.8751,-71.9658,3,1,109002696
16758,HOWELL'S BROOK,42.0078,-73.0042,2,1,105002178
14842,Indian Meadow Brook,41.9305,-73.079,3,3,105000586
15015,Seth Williams Brook,41.4399,-71.9741,5,2,108001341
14201,Five Mile River,41.1418,-73.4833,5,2,102001005
15510,Cobble Brook,41.7454,-73.4542,3,1,103008532
16307,Long Hill Brook,41.5408,-72.653,5,3,106002177
17211,Wyassup Brook,41.4506,-71.8444,5,1,110001296
17405,Roaring Brook,41.9818,-72.2215,5,1,107003470
17455,West Branch Pequonnock River,41.301,-73.2489,5,1,102002738
17556,Bolton Pond Brook,41.796962,-72.42478,2,1,107001479
15333,Webster Brook,41.6405,-72.7421,5,2,106002739
15776,East Branch Mount Hope,41.881,-72.16,3,1,107002553
17530,Haleys Brook,41.38712,-71.97682,3,2,108001851
14863,Rocky Brook,42.0134,-71.802,2,2,109001866
14305,Muddy Brook,42.0147,-72.0017,3,4,109001865
16288,Branch Brook,41.9199,-72.1256,2,2,107002850
16106,Branch Brook,41.9108,-72.1245,2,2,107002850
14363,Norwalk River,41.3101,-73.4691,5,2,102002788
14800,Steele Brook,41.6105,-73.1153,3,4,103004492
14997,East Branch Salmon Brook,42.0135,-72.8435,2,1,105002182
16385,Beaver Brook,41.932,-72.9754,2,1,105000580
14741,Titicus River,41.3287,-73.5218,3,1,101000729
14740,Quaker Brook,41.512349,-73.52695,3,5,101000269
16028,Carse Brook,41.8552,-73.3755,3,2,103005564
14148,Bunnell Brook,41.7846,-72.9657,3,2,105001294
16370,Bunnell Brook,41.7807,-72.963,3,5,105001294
19657,Bunnell Brook,41.786255,-72.964622,4,1,105001294
16139,Brown Brook,41.9267,-73.2799,2,8,103004094
14202,Five Mile River,41.1365,-73.4793,5,2,102000898
16003,Nickelmine Brook,41.8199,-73.1461,4,1,103006456
15035,Spruce Brook,41.7472,-73.115,2,1,103008473
14888,Ekonk Brook,41.7109,-71.8778,2,3,109003452
14399,Pocotopaug Creek,41.573,-72.5015,5,1,106002345
14400,Pocotopaug Creek,41.565,-72.5069,5,2,106002345
19019,Wachocastinook Creek,41.993089,-73.438412,2,1,103003654
15044,Kent Falls Brook,41.7769,-73.4192,2,1,103007507
17321,East Spring Brook,41.6121,-73.1761,3,1,103012069
16128,Stonehouse Brook,41.7812,-72.1509,3,7,107001457
15856,Misery Brook,41.5699,-72.8733,5,1,104000122
17174,WASH BROOK,41.825,-72.7386,5,1,106003475
18463,Fivemile River,41.12685,-73.47101,5,1,102000816
14549,Belcher Brook,41.6165,-72.758,5,1,106002657
16138,Wepawaug River,41.3297,-73.0296,4,1,104001314
16143,Little River,41.2931,-73.3678,3,7,102002649
16311,Reservoir Brook,41.6089,-72.5999,4,1,106002614
15313,Harris Brook,41.4733,-72.2851,4,1,106001496
15319,Nod Brook,41.8158,-72.8294,4,4,105001337
18509,"South Fork Hockanum River (""""Hop Brook"""")",41.762739,-72.516012,4,1,106003171
16133,Wharton Brook,41.4324,-72.8321,3,1,104000497
16846,MILL CREEK,41.4644,-72.5092,3,1,106001415
14724,Oxoboxo Brook,41.4673,-72.157,3,1,108001137
14725,Seth Williams Brook,41.4257,-71.9573,5,1,108001481
14473,Ten Mile River,41.5267,-72.9331,4,3,104000230
18123,Northfield Brook,41.6737,-73.0853,3,1,103010642
14856,Pond Meadow Brook,41.3807,-72.5904,3,1,104000774
14290,Menunketesuck River,41.3565,-72.5405,3,2,104001140
16296,fourmile river,41.3208,-72.2575,4,1,108002430
14712,Transylvania Brook,41.484,-73.2584,4,1,103015005
14711,Transylvania Brook,41.484262,-73.258547,5,1,103015005
14521,Factory Brook,41.9668,-73.4277,4,1,103003877
16276,Latimer Brook,41.4375,-72.2253,4,1,108001365
16298,Stony Brook,41.4716,-72.1182,3,2,108001091
16089,Morgan Brook,41.9086,-73.0007,3,1,105001733
14576,Sawmill Brook,41.6008,-72.7141,4,3,106002517
14402,Poland River,41.6912,-73.0045,3,2,105000030
16144,Aspetuck River,41.3076,-73.332,3,1,102002766
15858,Cricker Brook,41.1984,-73.2647,5,1,102001620
16108,Knowlton Brook,41.8492,-72.1783,3,1,107002179
15102,Means Brook,41.3191,-73.1618,4,1,103018177
15670,Sympaug Brook,41.3921,-73.4285,5,4,103016828
14156,Comstock Brook,41.1961,-73.4354,5,1,102001655
16320,Sumner Brook,41.5493,-72.6416,4,1,106002161
16044,Chatfield Hollow Brook,41.3742,-72.593,3,1,104000815
17342,Ball Pond Brook,41.465,-73.465,5,1,103015243
16313,Mad River,41.9477,-73.1444,3,1,105000646
16317,Coppermine Brook,41.7137,-72.9261,3,1,105000062
19024,Crystal Lake Brook,41.966806,-72.362173,4,1,107003311
14437,Salmon Brook,41.7167,-72.5851,4,1,106002030
16342,Blackledge River,41.6814,-72.463,3,1,106002921
14377,Pattaconk Brook,41.3991,-72.4651,2,3,106000865
19026,Horseneck Brook,41.027382,-73.633868,5,1,102000157
16145,Horseneck Brook,41.022,-73.6328,5,1,102000157
14720,Green Fall River,41.4568,-71.8169,2,13,110001265
14716,Steele Brook,41.5916,-73.0962,5,1,103012426
17728,Trout Brook,41.76588,-72.76033,5,1,106003166
17271,Cherry Brook,41.8733,-72.9063,2,1,105000341
15210,Beaver Brook,41.6841,-72.1092,3,1,107000598
15357,Sasco Brook,41.1457,-73.3012,4,4,102000983
15312,Beaver Brook,41.409952,-72.329059,2,5,106000947
16410,Roaring Brook No 2,41.4244,-72.4084,2,1,106001040
14358,Noroton River,41.0898,-73.5152,5,4,102000434
17181,WEST BRANCH BANTAM RIVER,41.7628,-73.1897,4,1,103008170
15253,West Branch Bantam River,41.758,-73.1861,4,1,103008170
14792,Long Meadow Pond Brook,41.4864,-73.0556,5,4,103014698
14969,Mad River,41.5744,-72.9884,5,1,103012793
16300,Hop River,41.7712,-72.4089,3,1,107001334
15507,Guinea Brook,41.8144,-73.3769,4,1,103006567
16321,Bass Brook,41.6931,-72.7587,5,1,106002975
14731,Trading Cove Brook,41.5021,-72.1235,2,3,108000827
15046,Charters Brook,41.9062,-72.4035,2,1,106003718
19644,Fenton River,41.893756,-72.232191,4,1,107002637
14360,Norwalk River,41.2675,-73.4414,3,6,102002534
14436,Salmon Brook,41.7191,-72.602,4,3,106002024
14983,Salmon Brook,41.7181,-72.6133,5,1,106002024
14401,Pocotopaug Creek,41.5352,-72.5182,3,2,106002132
19681,Merrick Brook,41.697255,-72.084129,4,1,107000712
16312,Mad River,41.9458,-73.1286,2,1,105001895
16417,Furnace Brook,41.9934,-72.2695,3,2,107003567
14294,Mill Brook,41.6643,-71.9198,5,1,109003673
16268,Farmill River,41.288,-73.1461,5,1,103018517
14520,Factory Brook,41.9751,-73.4212,5,3,103003800
14470,Tankerhoosen River,41.8272,-72.464,3,7,106003411
14296,Mill Brook,41.667,-71.9227,3,1,109003658
14491,West River,41.3574,-72.7206,3,1,104001180
15005,Bantam River,41.7588,-73.1841,3,4,103008128
14129,Beacon Hill Brook,41.4684,-73.0501,4,4,103015193
14490,West River,41.3399,-72.7154,3,4,104001228
14176,East Branch Naugatuck River,41.8122,-73.1221,4,1,103004350
15859,Means Brook,41.2931,-73.1442,4,1,103018486
16718,HALFWAY RIVER,41.3886,-73.1936,3,1,103016836
14861,Latimer Brook,41.4209,-72.2209,3,1,108001530
16126,Hall Meadow Brook,41.8861,-73.1689,3,1,103005009
14139,Bladens River (Bladdens River),41.3958,-73.0608,3,1,103016722
14138,Bladens River (Bladdens River),41.3972,-73.0718,5,1,103016676
16418,Furnace Brook,41.9937,-72.2767,4,1,107003570
14395,Pequonnock River,41.2881,-73.2348,4,1,102002656
16063,Marshepaug River,41.7794,-73.2663,4,2,103007792
14501,Willow Brook,41.6423,-72.7503,5,3,106002734
14722,Oxoboxo Brook,41.4462,-72.1253,4,1,108001292
14424,Quinnipiac River,41.644,-72.8745,5,1,104000035
16431,Sprain Brook,41.5696,-73.2259,3,2,103012879
14465,Stony Brook,41.9608,-72.711,4,4,106003920
15067,Farm River,41.3524,-72.8073,5,2,104001175
15965,Meadow Brook,41.5871,-72.3868,3,1,106002443
15720,Blackwell Brook,41.7896,-71.9723,2,2,109003000
15364,West Branch Saugatuck River,41.1718,-73.3643,4,4,102001377
16131,Chatfield Hollow Brook,41.3314,-72.595,3,5,104001320
14727,Latimer Brook,41.4107,-72.2217,4,2,108001593
15543,Pease Brook,41.5947,-72.1923,3,3,108000230
14719,Wyassup Brook,41.4566,-71.8172,3,3,110001317
16022,Weekeepeemee River,41.5856,-73.2292,3,2,103012530
14733,Oxoboxo Brook,41.4366,-72.1062,5,2,108001367
14250,South Fork Hockanum River,41.7767,-72.5612,5,2,106003179
14553,Norwalk River,41.2604,-73.4367,4,4,102002459
16860,MOODUS RIVER,41.5111,-72.4375,3,1,106001858
15703,West Branch Salmon Brook,41.9592,-72.8469,2,1,105001956
14226,Harbor Brook,41.5314,-72.8218,5,8,104000222
15854,Muddy River,41.4151,-72.8012,4,3,104000539
15581,Pond Brook,41.4597,-73.3275,3,1,103015303
15567,Pease Brook,41.5807,-72.187,3,1,108000305
14606,Middle River,41.9659,-72.3278,3,1,107003335
18789,Muddy River,41.398123,-72.815119,4,1,104000631
14738,Gardner Brook,41.5433,-72.1734,3,3,108000530
15043,Furnace Brook,41.8212,-73.3713,3,2,103006457
14146,Branford River,41.3072,-72.7648,5,1,104001553
14194,Farm River,41.3331,-72.8153,5,1,104001286
14587,Tenmile River,41.6937,-72.2632,3,2,107000653
16261,Aspetuck River,41.2771,-73.3275,2,2,102002558
16029,padanaram brook,41.3987,-73.4553,5,1,103016587
15571,Cherry Brook,41.8365,-72.9295,3,2,105001405
14199,Fenton River,41.863,-72.2402,3,2,107002323
14179,East Branch Naugatuck River,41.797345,-73.115842,5,2,103006978
14463,Still River,41.3898,-73.4637,5,2,103016925
16141,Pequonnock River,41.2534,-73.2059,4,3,102002384
16260,Aspetuck River,41.2589,-73.3247,3,1,102002420
14388,Pequabuck River,41.678,-73.0002,5,2,105001054
14182,East Aspetuck River,41.6817,-73.354,5,1,103010254
14214,Furnace Brook,41.9841,-72.2947,4,2,107003454
16340,Saugatuck River,41.322,-73.4229,3,1,102002847
14280,Little River,41.4058,-73.0926,3,3,103016526
14605,Eightmile River,41.5908,-72.9009,3,7,104000093
14593,Whetstone Brook,41.831633,-71.878097,3,2,109002854
17707,West River,41.364,-72.9794,5,1,104001041
19016,Trout Brook,41.76615,-72.7392,5,1,106003139
14366,Norwalk River,41.246,-73.4341,4,5,102002176
14364,Norwalk River,41.2569,-73.4288,5,1,102002176
16971,PIPER BROOK,41.7122,-72.7369,5,1,106002016
14188,Eightmile River,41.588,-72.8977,3,6,104000096
15689,Moodus River,41.4959,-72.4599,3,1,106001732
15179,Eightmile River,41.4671,-72.3372,3,2,106001382
14554,Norwalk River,41.2268,-73.4246,5,1,102001987
14396,Pine Brook,41.5079,-72.4952,2,3,106001841
14706,Whitford Brook,41.3928,-71.9604,3,12,108001825
14859,Shunock River,41.4304,-71.8526,3,1,110001442
14601,Broad Brook,41.5632,-71.9834,3,3,109004082
16319,Pequabuck River,41.6708,-72.9774,5,1,105001044
14389,Pequabuck River,41.6693,-72.9936,5,6,105001044
14739,Susquetonscut Brook,41.5724,-72.1324,3,3,108000404
16335,Nonewaug River (Nonnewaug River),41.5783,-73.1745,3,3,103012707
14397,Piper Brook,41.7186,-72.7274,5,3,106002029
15499,West Branch Salmon Brook,41.94096,-72.834302,4,3,105000620
14147,Broad Brook,41.9147,-72.549,5,6,106003766
15540,Hop Brook,41.5049,-73.0584,5,1,103014245
14406,Pootatuck River,41.4064,-73.272,3,1,103016444
18685,Wash Brook,41.819229,-72.739279,5,1,106000259
14172,Deep Brook,41.4131,-73.2823,4,2,103016244
15047,Hockanum River,41.8676,-72.4341,5,2,106003602
14628,Steele Brook,41.5687,-73.0574,5,3,103012916
14456,Steele Brook,41.5805,-73.0703,5,8,103012916
14285,Mad River,41.5603,-73.0029,5,1,103013173
15711,Little River,41.7561,-72.0473,3,1,107001168
14215,Furnace Brook,41.9679,-72.2979,4,2,107003218
16419,Furnace Brook,41.9599,-72.2994,4,2,107003218
14656,Furnace Brook,41.9554,-72.3013,5,2,107003218
14721,Shunock River,41.4101,-71.8452,3,6,110001465
14186,Eightmile Brook,41.3885,-73.1648,2,2,103016888
15994,Eightmile Brook,41.3842,-73.1642,3,2,103016998
14248,Hop Brook,41.4987,-73.0537,5,4,103004629
15529,Macedonia Brook,41.7298,-73.4884,3,2,103009016
14588,Bungee Brook,41.8957,-72.0714,3,1,107002676
14390,Pequabuck River,41.6742,-72.9619,4,10,105000011
14885,Pequabuck River,41.6743,-72.956,3,1,105001051
14158,Coppermine Brook,41.6777,-72.9077,4,2,105000017
15583,Mad River,41.5413,-73.0089,5,1,103013614
14369,Norwalk River,41.2048,-73.4306,3,1,102001753
14479,Trout Brook,41.7314,-72.7231,5,7,106003070
15380,Aspetuck River,41.2287,-73.3241,5,1,102002006
14484,West Branch Salmon Brook,41.9372,-72.8215,2,3,105000642
16295,Latimer Brook,41.3695,-72.2002,3,2,108002043
14853,Norwalk River,41.2026,-73.4311,4,2,102001669
14298,Mill River,41.208,-73.257,4,3,102001653
15092,Fenton River,41.8335,-72.2429,2,1,107002020
14732,Poquetanuck Brook (Hewitt Brook),41.4981,-72.0365,3,3,108000856
16332,East Aspetuck River,41.6546,-73.3785,5,1,103011123
14247,Hollenbeck River,41.9431,-73.3058,2,4,103004210
15048,Hockanum River,41.8666,-72.4648,4,3,106003597
14238,Hockanum River,41.8758,-72.4743,5,2,106003597
16338,West Branch Naugatuck River,41.8561,-73.1602,3,1,103005596
18867,Blackledge River,41.617548,-72.426253,3,1,106002616
14137,Blackledge River,41.6084,-72.4263,3,1,106002616
14281,Lyman Brook,41.6077,-72.4263,3,1,106002616
14489,West River,41.3303,-72.9663,5,3,104001342
16259,Aspetuck River,41.2132,-73.3291,4,1,102001802
15479,Quinnipiac River,41.5996,-72.8854,5,4,104000092
14349,Nepaug River,41.83,-72.9947,3,2,105001395
14595,Quanduck Brook,41.721906,-71.836053,3,1,109003308
14486,Wepawaug River,41.236,-73.0573,4,2,104002486
14303,Muddy Brook,41.9838,-72.6582,4,2,106004021
15065,Farm River,41.2791,-72.8672,5,1,104002043
18877,Leadmine Brook,41.7211,-73.05769,3,1,103009352
16343,Green Fall River,41.4523,-71.809,3,2,110001291
14417,Quinnipiac River,41.5878,-72.891,5,1,104000099
14472,Ten Mile River,41.5655,-72.8905,5,3,104000145
15138,Bantam River,41.7305,-73.1868,3,1,103009039
14444,Saugatuck River,41.2945,-73.3948,3,15,102002697
14452,Silvermine River,41.1503,-73.4434,5,2,102000942
14126,Aspetuck River,41.1864,-73.3429,4,1,102001531
14602,Merrick Brook,41.661,-72.1101,3,1,107000473
15240,Hubbard Brook,42.0356,-72.9384,2,5,105002248
14394,Pequonnock River,41.2343,-73.1838,4,5,102002069
14407,Pootatuck River,41.4142,-73.2823,3,2,103016207
14408,Pootatuck River,41.4144,-73.2825,3,3,103016207
15375,Aspetuck River,41.1769,-73.3579,4,2,102001415
14145,Branch Brook,41.6434,-73.081,5,1,103011292
15678,Sandy Brook,42.0109,-73.0888,3,1,105000838
14556,Silvermine River,41.1361,-73.4346,5,1,102000927
15087,Muddy River,41.3668,-72.8543,4,4,104001043
15013,Mill River,41.4259,-72.9056,3,5,104000503
15531,Leadmine Brook,41.7164,-73.0604,3,2,103009658
14600,Blackwell Brook,41.7407,-71.9488,3,2,109003224
14221,Hammonasset River,41.3278,-72.6116,3,3,104001327
14409,Pootatuck River,41.4162,-73.2824,3,4,103016184
14196,Farmill River,41.273,-73.1129,4,1,103018647
16400,North Branch Park River,41.797,-72.72,5,3,106003270
14431,Rippowam River,41.1134,-73.5471,4,1,102000632
14183,East Aspetuck River,41.5979,-73.4152,3,4,103012448
14488,West Aspetuck River,41.604889,-73.428789,3,3,103012465
16301,Pequabuck River,41.6698,-72.9272,5,1,105001042
14195,Farmill River,41.2591,-73.0979,4,3,103018783
14284,Mad River,41.5439,-73.0384,5,7,103013586
14150,Byram River,41.0276,-73.6621,5,3,102000175
15177,Mill River,41.4211,-72.9022,3,2,104000916
16415,Mill River,41.4141,-72.895,4,1,104000921
14391,Pequabuck River,41.6681,-72.9208,5,3,105000008
14370,Norwalk River,41.1909,-73.4297,4,6,102001545
14355,Nonewaug River,41.5575,-73.2122,3,2,103013116
14433,Roaring Brook,41.665,-72.6045,3,2,106002851
15184,Roaring Brook,41.6643,-72.5977,4,1,106002851
15530,Weekeepeemee River,41.5575,-73.2155,3,8,103013117
14241,Hockanum River,41.8503,-72.4878,5,5,106003561
14293,Mianus River,41.0806,-73.5812,4,2,102000324
14592,Fenton River,41.7925,-72.21,2,2,107001546
16346,Norwalk River,41.1703,-73.4172,4,1,102001342
14599,Mashamoquet Brook,41.8499,-71.9359,3,2,109002775
16090,North Branch Park River,41.7672,-72.7033,5,1,106003163
14555,Norwalk River,41.1639,-73.4193,5,1,102001240
14301,Mill River,41.3828,-72.8967,3,2,104000807
16412,Mill River,41.3925,-72.891,4,2,104000807
16414,Mill River,41.4038,-72.894,4,2,104000807
16411,Mill River,41.3893,-72.893,4,1,104000807
16413,Mill River,41.3972,-72.8928,4,3,104000807
14590,Bigelow Brook,41.8671,-72.0921,2,2,107002379
14482,West Branch Naugatuck River,41.8181,-73.1441,4,6,103006502
14462,Still River,41.3923,-73.4348,5,1,103014877
14585,Skungamaug River,41.7659,-72.3927,3,1,107001206
19639,Skungamaug River,41.76335,-72.39306,4,1,107001206
14283,Mad River,41.9199,-73.0597,3,3,105001793
14439,Salmon Creek (Salmon Kill),41.9337,-73.3908,4,3,103004077
14469,Tankerhoosen River,41.8201,-72.5033,4,4,106003361
14242,Hockanum River,41.8195,-72.5035,4,2,106003361
14361,Norwalk River,41.1359,-73.426,5,7,102000914
15857,Mill River,41.1521,-73.2726,5,1,102000817
14589,Still River,41.8716,-72.0877,2,1,107002376
16323,Coginchaug River,41.5394,-72.6858,4,1,106002178
19699,Rippowam River,41.066398,-73.55384,5,1,102000017
14432,Rippowam River,41.0661,-73.5484,5,2,102000017
14583,Middle River,41.9525,-72.3039,3,8,107003214
14708,Middle River,41.9519,-72.3084,4,1,107003214
14843,Sandy Brook,41.9904,-73.058,2,1,105002101
14277,Little River,41.6393,-72.0582,3,4,107000331
14591,Mount Hope River,41.7971,-72.1716,3,4,107001603
15250,Mattabesset River,41.6383,-72.7333,5,2,106002731
14276,Little River,41.928,-71.9315,3,1,109002372
14442,Sandy Brook,41.974,-73.0406,2,11,105000742
16243,Fivemile River,41.918,-71.83,3,1,109002423
14686,Blackberry River,42.0096,-73.2806,3,4,103003481
18935,Saugatuck River,41.23232,-73.3451,4,1,102002031
14443,Saugatuck River,41.2245,-73.3469,4,1,102001983
14153,Coginchaug River,41.5547,-72.6737,4,4,106002257
16202,Coginchaug River,41.5666,-72.6644,5,1,106002257
14464,Still River,41.4063,-73.4253,5,4,103014855
15171,East Branch Salmon Brook,41.955,-72.7794,3,1,105000678
14734,Yantic River,41.5766,-72.1918,3,2,108000330
14710,Shepaug River,41.683397,-73.298268,3,4,103010169
15151,Little River,41.912,-71.9163,3,2,109002461
16938,South Branch Park River,41.7339,-72.7117,5,1,106003069
14260,Jeremy River,41.5799,-72.4028,3,1,106002421
15309,Blackberry River,42.0156,-73.3147,3,1,103003441
15308,Blackberry River,42.0171,-73.3178,3,1,103003441
14278,Little River,41.6158,-72.0416,4,6,107000257
14459,Still River,41.929,-73.0584,4,2,105000579
16303,Moosup River,41.6977,-71.823,3,1,109003460
14687,Blackberry River,42.023955,-73.327636,4,1,103003408
15370,Saugatuck River,41.1927,-73.3617,4,1,102001562
14187,Eightmile River,41.4312,-72.3376,3,1,106001093
15020,Eightmile River,41.43,-72.3392,3,2,106001093
14174,East Branch Eightmile River,41.4309,-72.3375,3,3,106001093
14132,Blackberry River,42.0236,-73.341,3,3,103003368
14460,Still River,41.9476,-73.0487,4,1,105000647
15008,Moosup River,41.7172,-71.8422,4,1,109003347
14713,Still River,41.9503,-73.049,4,3,105000682
14288,Mattabesset River,41.6189,-72.7127,5,10,106002689
14383,Pequabuck River,41.6719,-72.8751,5,4,105001047
15006,Hockanum River,41.8078,-72.5204,4,2,106003290
14341,Naugatuck River,41.7891,-73.1145,5,5,103007276
14403,Pomperaug River,41.5491,-73.2165,3,1,103013283
14344,Naugatuck River,41.7806,-73.1175,5,1,103007426
14580,Willimantic River,41.9505,-72.3037,3,6,107003039
14581,Willimantic River,41.9423,-72.3058,4,8,107003039
14348,Naugatuck River,41.7631,-73.1173,5,3,103007994
14244,Hockanum River,41.7883,-72.5503,5,2,106003226
16071,Hockanum River,41.7874,-72.551,5,1,106003226
14393,Pequabuck River,41.7046,-72.8504,5,7,105001133
14371,Norwalk River,41.1267,-73.4295,5,1,102000705
16205,Norwalk River,41.1231,-73.425,5,1,102000705
16050,Naugatuck River,41.7485,-73.1129,5,1,103008462
14458,Still River,41.4389,-73.401,5,14,103015909
14205,Fivemile River,41.8451,-71.8912,4,1,109002789
14584,Roaring Brook,41.904,-72.2891,2,8,107002762
14237,Hockanum River,41.7859,-72.5569,5,1,106003227
15012,Pomperaug River,41.5218,-73.2061,3,1,103013863
16049,Naugatuck River,41.7412,-73.1148,5,1,103008686
14319,Naugatuck River,41.7361,-73.1054,5,5,103008815
15480,Naugatuck River,41.7347,-73.1051,5,2,103008893
14596,Pachaug River,41.604,-71.9852,5,1,109003928
14420,Quinnipiac River,41.5502,-72.8705,5,2,104000178
14435,Salmon Brook,41.9366,-72.7749,3,2,105001845
15993,Naugatuck River,41.7174,-73.0867,5,1,103009385
15221,Scantic River,41.982,-72.5407,3,2,106004040
14314,Natchaug River,41.8008,-72.1182,2,11,107001654
14235,Hockanum River,41.7822,-72.5912,5,6,106003191
14404,Pomperaug River,41.4717,-73.256,4,3,103015152
14445,Saugatuck River,41.1693,-73.367,4,5,102001263
14413,Quinnipiac River,41.528244,-72.856272,5,9,104000231
14586,Hop River,41.7212,-72.2548,3,2,107000860
14441,Salmon River,41.5742,-72.4294,2,10,106002389
14594,Moosup River,41.7148,-71.8931,3,2,109003390
14461,Sandy Brook (Still River),41.9685,-73.0331,3,4,105000727
15176,Natchaug River,41.7569,-72.1523,3,2,107001169
14735,Yantic River,41.5583,-72.112,3,3,108000479
16254,Shepaug River,41.6568,-73.318,3,2,103010896
14207,French River,42.0248,-71.8843,4,3,109001786
14421,Quinnipiac River,41.5185,-72.8258,6,1,104000241
14492,Willimantic River,41.8326,-72.3079,3,3,107002001
14825,Naugatuck River,41.6743,-73.0695,5,7,103010654
14422,Quinnipiac River,41.4912,-72.8174,5,2,104000288
14446,Scantic River,41.8941,-72.5723,4,3,106003642
14923,Naugatuck River,41.6596,-73.0779,5,1,103010874
14321,Naugatuck River,41.6497,-73.0774,5,7,103010788
18932,French River,41.963157,-71.89015,4,1,109002199
14206,French River,41.9548,-71.884,3,4,109002257
14414,Quinnipiac River,41.4501,-72.8407,5,13,104000393
14582,Willimantic River,41.7623,-72.2691,3,2,107001203
16258,West Branch Farmington River,41.9735,-73.0209,3,3,105000784
14450,Shepaug River,41.5489,-73.3308,3,22,103013315
14322,Naugatuck River,41.631,-73.0772,5,7,103011614
15792,West Branch Farmington River,41.9602,-73.0178,4,1,105002004
14316,Naugatuck River,41.6159,-73.0579,5,10,103011979
14323,Naugatuck River,41.5894,-73.0574,5,1,103012677
14324,Naugatuck River,41.5571,-73.0544,5,1,103013164
14329,Naugatuck River,41.5304,-73.0402,5,4,103013787
14331,Naugatuck River,41.5051,-73.0469,5,1,103014274
14330,Naugatuck River,41.5182,-73.0536,5,1,103014274
14715,Naugatuck River,41.514,-73.0539,5,1,103014274
14714,Naugatuck River,41.513,-73.0529,5,1,103014274
14471,Tenmile River,41.6664,-73.5119,3,3,103010673
14332,Naugatuck River,41.5002,-73.0503,5,6,103014383
15825,West Branch Farmington River,41.9168,-72.989,3,4,105001781
14334,Naugatuck River,41.4834,-73.0523,5,1,103014739
15794,West Branch Farmington River,41.8732,-72.9648,3,1,105001575
16239,West Branch Farmington River,41.878,-72.965,4,1,105001575
14317,Naugatuck River,41.4435,-73.0642,5,13,103015834
18931,Naugatuck River,41.411667,-73.07055,5,1,103016429
14379,Pawcatuck River,41.3978,-71.8422,3,3,110001498
14318,Naugatuck River,41.3387,-73.0806,5,5,103018067
14339,Naugatuck River,41.3189,-73.0818,5,1,103018203
15837,Farmington River,41.8395,-72.9346,4,1,105000242
14609,Quinebaug River,41.9081,-71.9096,4,3,109002496
14841,FARMINGTON RIVER,41.8257,-72.9295,3,2,105000209
14197,FARMINGTON RIVER,41.7508,-72.8717,3,4,105001208
14451,Shetucket River,41.7002,-72.1823,4,2,107000655
15892,Shetucket River,41.6175,-72.085,3,2,107000273
16304,Quinebaug River,41.7809,-71.901,3,2,109003033
16066,Farmington River,41.914,-72.765,4,3,105000529
16225,Farmington River,41.9015,-72.6708,5,2,105000461
14598,Quinebaug River,41.6022,-71.9868,4,4,109003929
14254,Housatonic River,41.8906,-73.3576,4,3,103004659
14251,Housatonic River,41.8806,-73.3654,4,3,103005156
16327,Housatonic River,41.8508,-73.3758,4,1,103005749
16065,Housatonic River,41.8148,-73.376,3,1,103006566
16076,Housatonic River,41.7673,-73.4379,4,1,103007804
15886,HOUSATONIC RIVER,41.6475,-73.4838,4,1,103010804
